{
  "type": "FeatureCollection",
  "features": [
    {
      "type": "Feature",
      "properties": {
        "id": "PIZ-N01",
        "label": "PIZ-N01",
        "sublabel": "Piezometer · North",
        "nodeType": "piezometer",
        "radius": 8
      },
      "geometry": {
        "type": "Point",
        "coordinates": [-46.572, -21.757]
      }
    },
    {
      "type": "Feature",
      "properties": {
        "id": "PIZ-C02",
        "label": "PIZ-C02",
        "sublabel": "Piezometer · Central",
        "nodeType": "piezometer",
        "radius": 8
      },
      "geometry": {
        "type": "Point",
        "coordinates": [-46.582, -21.800]
      }
    },
    {
      "type": "Feature",
      "properties": {
        "id": "PIZ-S03",
        "label": "PIZ-S03",
        "sublabel": "Piezometer · South",
        "nodeType": "piezometer",
        "radius": 8
      },
      "geometry": {
        "type": "Point",
        "coordinates": [-46.600, -21.862]
      }
    },
    {
      "type": "Feature",
      "properties": {
        "id": "PIZ-E04",
        "label": "PIZ-E04",
        "sublabel": "Piezometer · East",
        "nodeType": "piezometer",
        "radius": 8
      },
      "geometry": {
        "type": "Point",
        "coordinates": [-46.552, -21.792]
      }
    },
    {
      "type": "Feature",
      "properties": {
        "id": "UDC",
        "label": "UDC",
        "sublabel": "INB Legacy · monitored",
        "nodeType": "udc",
        "radius": 12
      },
      "geometry": {
        "type": "Point",
        "coordinates": [-46.648, -21.912]
      }
    },
    {
      "type": "Feature",
      "properties": {
        "id": "MINE",
        "label": "Mine",
        "sublabel": "Caldeira Block 14-C",
        "nodeType": "mine",
        "radius": 9
      },
      "geometry": {
        "type": "Point",
        "coordinates": [-46.618, -21.848]
      }
    },
    {
      "type": "Feature",
      "properties": {
        "id": "CIP",
        "label": "CIP Plant",
        "sublabel": "Process water hub",
        "nodeType": "plant",
        "radius": 9
      },
      "geometry": {
        "type": "Point",
        "coordinates": [-46.555, -21.793]
      }
    }
  ]
}
